{
"type": "FeatureCollection",
"totalFeatures": 2412,
"numberMatched": 2412,
"numberReturned": 2412,
"timeStamp": "2020-11-30T04:50:07.940Z",
"name": "ramsar_points",
"crs": { "type": "name", "properties": { "name": "urn:ogc:def:crs:OGC:1.3:CRS84" } },
"features": [
{ "type": "Feature", "properties": { "id": null, "v_idris": null, "ramsarid": null, "officialname": null, "iso3": null, "country_en": null, "area_off": null }, "geometry": null },
{ "type": "Feature", "properties": { "id": "features_centroid_published.fid--4ad98d38_1761775d8bd_-189d", "v_idris": 1143, "ramsarid": 658, "officialname": "Lake Burdur ", "iso3": "TUR", "country_en": "Turkey", "area_off": 24800.0 }, "geometry": { "type": "Point", "coordinates": [ 30.20566246, 37.7469685 ] } },
{ "type": "Feature", "properties": { "id": "features_centroid_published.fid--4ad98d38_1761775d8bd_-189c", "v_idris": 1147, "ramsarid": 942, "officialname": "Kizilirmak Delta ", "iso3": "TUR", "country_en": "Turkey", "area_off": 21700.0 }, "geometry": { "type": "Point", "coordinates": [ 35.99553685, 41.63966102 ] } },
{ "type": "Feature", "properties": { "id": "features_centroid_published.fid--4ad98d38_1761775d8bd_-189b", "v_idris": 1148, "ramsarid": 943, "officialname": "Akyatan Lagoon", "iso3": "TUR", "country_en": "Turkey", "area_off": 14700.0 }, "geometry": { "type": "Point", "coordinates": [ 35.26045614, 36.6280014 ] } },
{ "type": "Feature", "properties": { "id": "features_centroid_published.fid--4ad98d38_1761775d8bd_-189a", "v_idris": 1150, "ramsarid": 945, "officialname": "Gediz Delta", "iso3": "TUR", "country_en": "Turkey", "area_off": 14900.0 }, "geometry": { "type": "Point", "coordinates": [ 26.88823765, 38.5191092 ] } },
{ "type": "Feature", "properties": { "id": "features_centroid_published.fid--4ad98d38_1761775d8bd_-15ec", "v_idris": 52532243, "ramsarid": 621, "officialname": "Lake Arpi", "iso3": "ARM", "country_en": "Armenia", "area_off": 3230.0 }, "geometry": { "type": "Point", "coordinates": [ 43.64263514, 41.05929777 ] } },
{ "type": "Feature", "properties": { "id": "features_centroid_published.fid--4ad98d38_1761775d8bd_-15eb", "v_idris": 52534472, "ramsarid": 1989, "officialname": "Khor Virap Marsh", "iso3": "ARM", "country_en": "Armenia", "area_off": 50.0 }, "geometry": { "type": "Point", "coordinates": [ 44.57135643, 39.88713126 ] } },
{ "type": "Feature", "properties": { "id": "features_centroid_published.fid--4ad98d38_1761775d8bd_-15b0", "v_idris": 55425893, "ramsarid": 1079, "officialname": "Palm Islands Nature Reserve", "iso3": "LBN", "country_en": "Lebanon", "area_off": 415.0 }, "geometry": { "type": "Point", "coordinates": [ 35.76666667, 34.5 ] } },
{ "type": "Feature", "properties": { "id": "features_centroid_published.fid--4ad98d38_1761775d8bd_-1526", "v_idris": 3960362, "ramsarid": 935, "officialname": "Sabkhat al-Jabbul Nature Reserve", "iso3": "SYR", "country_en": "Syrian Arab Republic", "area_off": 10000.0 }, "geometry": { "type": "Point", "coordinates": [ 37.5, 36.06666667 ] } },
{ "type": "Feature", "properties": { "id": "features_centroid_published.fid--4ad98d38_1761775d8bd_-1484", "v_idris": 32674617, "ramsarid": 1229, "officialname": "Pomorie Wetland Complex ", "iso3": "BGR", "country_en": "Bulgaria", "area_off": 922.0 }, "geometry": { "type": "Point", "coordinates": [ 27.62631622, 42.59563642 ] } },
{ "type": "Feature", "properties": { "id": "features_centroid_published.fid--4ad98d38_1761775d8bd_-1432", "v_idris": 39591363, "ramsarid": 1228, "officialname": "Poda", "iso3": "BGR", "country_en": "Bulgaria", "area_off": 307.0 }, "geometry": { "type": "Point", "coordinates": [ 27.46301446, 42.45326173 ] } },
{ "type": "Feature", "properties": { "id": "features_centroid_published.fid--4ad98d38_1761775d8bd_-1409", "v_idris": 57734739, "ramsarid": 1081, "officialname": "Larnaca Salt Lake", "iso3": "CYP", "country_en": "Cyprus", "area_off": 1107.0 }, "geometry": { "type": "Point", "coordinates": [ 33.61165357, 34.89437066 ] } },
{ "type": "Feature", "properties": { "id": "features_centroid_published.fid--4ad98d38_1761775d8bd_-13ff", "v_idris": 30591874, "ramsarid": 2145, "officialname": "Nemrut Caldera", "iso3": "TUR", "country_en": "Turkey", "area_off": 4589.0 }, "geometry": { "type": "Point", "coordinates": [ 42.24325796, 38.62267772 ] } },
{ "type": "Feature", "properties": { "id": "features_centroid_published.fid--4ad98d38_1761775d8bd_-12b7", "v_idris": 1875, "ramsarid": 1890, "officialname": "Lake Kuyucuk ", "iso3": "TUR", "country_en": "Turkey", "area_off": 416.0 }, "geometry": { "type": "Point", "coordinates": [ 43.45, 40.75 ] } },
{ "type": "Feature", "properties": { "id": "features_centroid_published.fid--4ad98d38_1761775d8bd_-12aa", "v_idris": 1375, "ramsarid": 1375, "officialname": "Akrotiri", "iso3": "GBR", "country_en": "United Kingdom of Great Britain and Northern Ireland", "area_off": 2171.0 }, "geometry": { "type": "Point", "coordinates": [ 32.96666667, 34.61666667 ] } },
{ "type": "Feature", "properties": { "id": "features_centroid_published.fid--4ad98d38_1761775d8bd_-120a", "v_idris": 39582893, "ramsarid": 1230, "officialname": "Vaya Lake", "iso3": "BGR", "country_en": "Bulgaria", "area_off": 2900.0 }, "geometry": { "type": "Point", "coordinates": [ 27.39572327, 42.49698698 ] } },
{ "type": "Feature", "properties": { "id": "features_centroid_published.fid--4ad98d38_1761775d8bd_-11a1", "v_idris": 42201469, "ramsarid": 893, "officialname": "Wetlands of Central Kolkheti", "iso3": "GEO", "country_en": "Georgia", "area_off": 33710.0 }, "geometry": { "type": "Point", "coordinates": [ 41.7, 42.2 ] } },
{ "type": "Feature", "properties": { "id": "features_centroid_published.fid--4ad98d38_1761775d8bd_-1177", "v_idris": 27252575, "ramsarid": 54, "officialname": "Evros Delta", "iso3": "GRC", "country_en": "Greece", "area_off": 9267.0 }, "geometry": { "type": "Point", "coordinates": [ 26.06666667, 40.83333333 ] } },
{ "type": "Feature", "properties": { "id": "features_centroid_published.fid--4ad98d38_1761775d8bd_-1154", "v_idris": 38583389, "ramsarid": 657, "officialname": "Göksu Delta", "iso3": "TUR", "country_en": "Turkey", "area_off": 15000.0 }, "geometry": { "type": "Point", "coordinates": [ 33.98842743, 36.29554639 ] } },
{ "type": "Feature", "properties": { "id": "features_centroid_published.fid--4ad98d38_1761775d8bd_-113c", "v_idris": 44244858, "ramsarid": 661, "officialname": "Sultan Marshes", "iso3": "TUR", "country_en": "Turkey", "area_off": 17200.0 }, "geometry": { "type": "Point", "coordinates": [ 35.26421442, 38.32559334 ] } },
{ "type": "Feature", "properties": { "id": "features_centroid_published.fid--4ad98d38_1761775d8bd_-113b", "v_idris": 44251111, "ramsarid": 1620, "officialname": "Kizören Obrouk", "iso3": "TUR", "country_en": "Turkey", "area_off": 127.0 }, "geometry": { "type": "Point", "coordinates": [ 33.18644263, 38.17279538 ] } },
{ "type": "Feature", "properties": { "id": "features_centroid_published.fid--4ad98d38_1761775d8bd_-113a", "v_idris": 44253030, "ramsarid": 1618, "officialname": "Meke Maar", "iso3": "TUR", "country_en": "Turkey", "area_off": 202.0 }, "geometry": { "type": "Point", "coordinates": [ 33.64320864, 37.68704266 ] } },
{ "type": "Feature", "properties": { "id": "features_centroid_published.fid--4ad98d38_1761775d8bd_-1139", "v_idris": 4426499, "ramsarid": 1619, "officialname": "Yumurtalik Lagoons", "iso3": "TUR", "country_en": "Turkey", "area_off": 19853.0 }, "geometry": { "type": "Point", "coordinates": [ 35.63749394, 36.67434214 ] } },
{ "type": "Feature", "properties": { "id": "features_centroid_published.fid--4ad98d38_1761775d8bd_-1138", "v_idris": 44272379, "ramsarid": 944, "officialname": "Lake Uluabat", "iso3": "TUR", "country_en": "Turkey", "area_off": 19900.0 }, "geometry": { "type": "Point", "coordinates": [ 28.59147888, 40.17135543 ] } },
{ "type": "Feature", "properties": { "id": "features_centroid_published.fid--4ad98d38_1761775d8bd_-1137", "v_idris": 4428115, "ramsarid": 660, "officialname": "Lake Kus ", "iso3": "TUR", "country_en": "Turkey", "area_off": 20400.0 }, "geometry": { "type": "Point", "coordinates": [ 27.97093561, 40.19194841 ] } },
{ "type": "Feature", "properties": { "id": "features_centroid_published.fid--4ad98d38_1761775d8bd_-1136", "v_idris": 44282039, "ramsarid": 659, "officialname": "Lake Seyfe ", "iso3": "TUR", "country_en": "Turkey", "area_off": 10700.0 }, "geometry": { "type": "Point", "coordinates": [ 34.4222907, 39.19738436 ] } },
{ "type": "Feature", "properties": { "id": "features_centroid_published.fid--4ad98d38_1761775d8bd_-10d4", "v_idris": 32474240, "ramsarid": 292, "officialname": "Atanasovsko Lake", "iso3": "BGR", "country_en": "Bulgaria", "area_off": 1995.06 }, "geometry": { "type": "Point", "coordinates": [ 27.47482424, 42.56511251 ] } },
{ "type": "Feature", "properties": { "id": "features_centroid_published.fid--4ad98d38_1761775d8bd_-106e", "v_idris": 48235167, "ramsarid": 894, "officialname": "Ispani Mire", "iso3": "GEO", "country_en": "Georgia", "area_off": 782.7 }, "geometry": { "type": "Point", "coordinates": [ 41.80157831, 41.85690417 ] } },
{ "type": "Feature", "properties": { "id": "features_centroid_published.fid--4ad98d38_1761775d8bd_-f98", "v_idris": 41433425, "ramsarid": 65, "officialname": "Ropotamo Complex", "iso3": "BGR", "country_en": "Bulgaria", "area_off": 3384.64 }, "geometry": { "type": "Point", "coordinates": [ 27.74301609, 42.31267959 ] } },
{ "type": "Feature", "properties": { "id": "features_centroid_published.fid--4ad98d38_1761775d8bd_-f7c", "v_idris": 4532150, "ramsarid": 2434, "officialname": "Bugdasheni Lake", "iso3": "GEO", "country_en": "Georgia", "area_off": 119.3 }, "geometry": { "type": "Point", "coordinates": [ 43.68212821, 41.20080511 ] } },
{ "type": "Feature", "properties": { "id": "features_centroid_published.fid--4ad98d38_1761775d8bd_-f7b", "v_idris": 41585860, "ramsarid": 2435, "officialname": "Madatapa Lake", "iso3": "GEO", "country_en": "Georgia", "area_off": 1398.0 }, "geometry": { "type": "Point", "coordinates": [ 43.78160645, 41.18255586 ] } }
]
}
